[
    {
        "name": "꽃길복권방",
        "latitude": 37.634971,
        "longitude": 127.0294575
    },
    {
        "name": "다모아",
        "latitude": 37.5044702,
        "longitude": 126.8918236
    },
    {
        "name": "다모아복권명당",
        "latitude": 37.4933235,
        "longitude": 126.8443646
    },
    {
        "name": "다모아복권",
        "latitude": 37.4959262,
        "longitude": 126.8428066
    },
    {
        "name": "팡팡복권방",
        "latitude": 37.5580336,
        "longitude": 126.9783914
    },
    {
        "name": "노다지복권방",
        "latitude": 37.6043268,
        "longitude": 127.042519
    },
    {
        "name": "한경종합광고",
        "latitude": 37.5039358,
        "longitude": 127.0885766
    },
    {
        "name": "노다지복권방",
        "latitude": 37.4837315,
        "longitude": 127.0379194
    },
    {
        "name": "하이로또",
        "latitude": 37.4519218,
        "longitude": 126.906367
    },
    {
        "name": "대박찬스",
        "latitude": 37.6258036,
        "longitude": 127.0240314
    },
    {
        "name": "복권방",
        "latitude": 37.4888068,
        "longitude": 126.8900262
    },
    {
        "name": "행운마트",
        "latitude": 37.5642276,
        "longitude": 126.9938871
    },
    {
        "name": "대지사",
        "latitude": 37.5643624,
        "longitude": 127.0303052
    },
    {
        "name": "수연식품(대박찬스)",
        "latitude": 37.5822938,
        "longitude": 127.0894102
    },
    {
        "name": "복권",
        "latitude": 37.5928569,
        "longitude": 127.0743977
    },
    {
        "name": "복권나라",
        "latitude": 37.5003682,
        "longitude": 127.0950454
    },
    {
        "name": "코사마트독산점",
        "latitude": 37.4689113,
        "longitude": 126.9015073
    },
    {
        "name": "스타공인중개사사무소",
        "latitude": 37.6051675,
        "longitude": 126.9605547
    },
    {
        "name": "코사마트",
        "latitude": 37.5000947,
        "longitude": 126.8904472
    },
    {
        "name": "신림용꿈돼지꿈",
        "latitude": 37.4798463,
        "longitude": 126.9575783
    },
    {
        "name": "산성슈퍼",
        "latitude": 37.4903484,
        "longitude": 127.1572739
    },
    {
        "name": "복권명당",
        "latitude": 37.4817277,
        "longitude": 126.9424689
    },
    {
        "name": "복권세계",
        "latitude": 37.4823412,
        "longitude": 126.8874421
    },
    {
        "name": "히딩크복권방",
        "latitude": 37.533899,
        "longitude": 127.0812273
    },
    {
        "name": "영광생활유통",
        "latitude": 37.4662659,
        "longitude": 126.8934608
    },
    {
        "name": "복권만화",
        "latitude": 37.4884264,
        "longitude": 127.0141123
    },
    {
        "name": "사과나무",
        "latitude": 37.564433,
        "longitude": 127.0017889
    },
    {
        "name": "하이로또복권방",
        "latitude": 37.5611404,
        "longitude": 127.0118831
    },
    {
        "name": "대박복권방",
        "latitude": 37.5650409,
        "longitude": 127.0157893
    },
    {
        "name": "행운복권방",
        "latitude": 37.5635336,
        "longitude": 127.0148576
    },
    {
        "name": "짱복권",
        "latitude": 37.5713332,
        "longitude": 127.007901
    },
    {
        "name": "주택복권사랑방",
        "latitude": 37.5009708,
        "longitude": 126.8746491
    },
    {
        "name": "로또샹스카페",
        "latitude": 37.4793582,
        "longitude": 126.8918968
    },
    {
        "name": "복권마을",
        "latitude": 37.4853561,
        "longitude": 126.8860533
    },
    {
        "name": "복권명가",
        "latitude": 37.4880157,
        "longitude": 126.8565118
    },
    {
        "name": "노다지복권방",
        "latitude": 37.5763336,
        "longitude": 127.0239582
    },
    {
        "name": "샘터",
        "latitude": 37.603156,
        "longitude": 127.0658773
    },
    {
        "name": "복권방(천하명당)",
        "latitude": 37.5565532,
        "longitude": 127.0274496
    },
    {
        "name": "복권클럽",
        "latitude": 37.5479762,
        "longitude": 127.0242565
    },
    {
        "name": "신성사",
        "latitude": 37.4982702,
        "longitude": 126.9080224
    },
    {
        "name": "행운의사랑방",
        "latitude": 37.5157199,
        "longitude": 126.8915924
    },
    {
        "name": "왕대박",
        "latitude": 37.5127802,
        "longitude": 126.9236304
    },
    {
        "name": "복권마을",
        "latitude": 37.5045833,
        "longitude": 126.9036152
    },
    {
        "name": "복권천국",
        "latitude": 37.4877214,
        "longitude": 126.992871
    },
    {
        "name": "천하명당복권방",
        "latitude": 37.5987843,
        "longitude": 126.9134725
    },
    {
        "name": "행운복권방",
        "latitude": 37.619819,
        "longitude": 126.9233602
    },
    {
        "name": "행운복권방",
        "latitude": 37.6000102,
        "longitude": 126.9190713
    },
    {
        "name": "복권전문점",
        "latitude": 37.6674976,
        "longitude": 127.0399306
    },
    {
        "name": "나눔",
        "latitude": 37.6661539,
        "longitude": 127.0348862
    },
    {
        "name": "캐논종합",
        "latitude": 37.5334635,
        "longitude": 126.9621779
    },
    {
        "name": "노다지복권방",
        "latitude": 37.5311699,
        "longitude": 126.8374734
    },
    {
        "name": "복권천국",
        "latitude": 37.5682776,
        "longitude": 126.813003
    },
    {
        "name": "신명",
        "latitude": 37.5624644,
        "longitude": 126.8084821
    },
    {
        "name": "복권마을",
        "latitude": 37.5529215,
        "longitude": 126.8502658
    },
    {
        "name": "아그네스",
        "latitude": 37.5645254,
        "longitude": 126.8115831
    },
    {
        "name": "복권나라",
        "latitude": 37.6014432,
        "longitude": 127.0775738
    },
    {
        "name": "은혜",
        "latitude": 37.5941104,
        "longitude": 127.0834697
    },
    {
        "name": "복권명당",
        "latitude": 37.5842596,
        "longitude": 127.0885949
    },
    {
        "name": "복권방",
        "latitude": 37.5465715,
        "longitude": 126.9454449
    },
    {
        "name": "복권천국방",
        "latitude": 37.554236,
        "longitude": 126.9123878
    },
    {
        "name": "복권백화점",
        "latitude": 37.5616061,
        "longitude": 126.904769
    },
    {
        "name": "복권마트",
        "latitude": 37.5919666,
        "longitude": 126.9449371
    },
    {
        "name": "행운복권방",
        "latitude": 37.5574111,
        "longitude": 126.952311
    },
    {
        "name": "노다지복권방",
        "latitude": 37.5653389,
        "longitude": 126.9659361
    },
    {
        "name": "복권세계",
        "latitude": 37.4879344,
        "longitude": 126.9121974
    },
    {
        "name": "복권명당",
        "latitude": 37.4981061,
        "longitude": 126.9292516
    },
    {
        "name": "뉴현대칼라",
        "latitude": 37.5028363,
        "longitude": 126.9353927
    },
    {
        "name": "복권나라",
        "latitude": 37.498858,
        "longitude": 126.9334048
    },
    {
        "name": "복권명당",
        "latitude": 37.5403972,
        "longitude": 127.128434
    },
    {
        "name": "복권방",
        "latitude": 37.533846,
        "longitude": 127.1360918
    },
    {
        "name": "단골집편의점",
        "latitude": 37.5405765,
        "longitude": 127.1262788
    },
    {
        "name": "포인트",
        "latitude": 37.5420022,
        "longitude": 127.1243645
    },
    {
        "name": "삼정그린환경",
        "latitude": 37.5274004,
        "longitude": 127.135632
    },
    {
        "name": "복드림복권방",
        "latitude": 37.547495,
        "longitude": 127.1339998
    },
    {
        "name": "복권방",
        "latitude": 37.4421143,
        "longitude": 126.9039556
    },
    {
        "name": "행운으뜸",
        "latitude": 37.4686929,
        "longitude": 126.9364841
    },
    {
        "name": "대풍",
        "latitude": 37.4849784,
        "longitude": 126.915275
    },
    {
        "name": "로또담배",
        "latitude": 37.4627402,
        "longitude": 126.9192225
    },
    {
        "name": "복권나라",
        "latitude": 37.4828091,
        "longitude": 126.9435149
    },
    {
        "name": "천하명당",
        "latitude": 37.4745943,
        "longitude": 126.9187404
    },
    {
        "name": "대박복권방",
        "latitude": 37.4650948,
        "longitude": 126.9036754
    },
    {
        "name": "천하명당복권방독산점",
        "latitude": 37.4725437,
        "longitude": 126.9022376
    },
    {
        "name": "복권나라",
        "latitude": 37.4860271,
        "longitude": 126.9398561
    },
    {
        "name": "주택복권사랑방",
        "latitude": 37.4864446,
        "longitude": 126.913446
    },
    {
        "name": "대박복권방",
        "latitude": 37.6092027,
        "longitude": 127.0589936
    },
    {
        "name": "복권명당",
        "latitude": 37.5552976,
        "longitude": 127.0930152
    },
    {
        "name": "복권나라",
        "latitude": 37.5544221,
        "longitude": 127.0756153
    },
    {
        "name": "복권방",
        "latitude": 37.5377902,
        "longitude": 127.085486
    },
    {
        "name": "천하명당복권방",
        "latitude": 37.5659658,
        "longitude": 127.0841001
    },
    {
        "name": "대원복권방",
        "latitude": 37.5713101,
        "longitude": 127.0828924
    },
    {
        "name": "행운의집",
        "latitude": 37.5469217,
        "longitude": 127.0733741
    },
    {
        "name": "천하명당",
        "latitude": 37.5020244,
        "longitude": 127.1079241
    },
    {
        "name": "럭키복권샵",
        "latitude": 37.4996443,
        "longitude": 127.151719
    },
    {
        "name": "명지복권방",
        "latitude": 37.4978579,
        "longitude": 127.1462713
    },
    {
        "name": "천하명당복권방",
        "latitude": 37.5068189,
        "longitude": 127.1082337
    },
    {
        "name": "광림마트",
        "latitude": 37.4930827,
        "longitude": 127.0421212
    },
    {
        "name": "강남상회",
        "latitude": 37.5074669,
        "longitude": 127.0334242
    },
    {
        "name": "달랑슈퍼",
        "latitude": 37.5052869,
        "longitude": 127.0595491
    },
    {
        "name": "보경식품",
        "latitude": 37.6275081,
        "longitude": 127.0254311
    },
    {
        "name": "동호슈퍼",
        "latitude": 37.5529638,
        "longitude": 127.0117354
    },
    {
        "name": "하나더마트",
        "latitude": 37.5643906,
        "longitude": 127.021941
    },
    {
        "name": "하임마트",
        "latitude": 37.5659248,
        "longitude": 127.0208148
    },
    {
        "name": "을지상회",
        "latitude": 37.5680983,
        "longitude": 127.0064646
    },
    {
        "name": "로또복권방",
        "latitude": 37.5649581,
        "longitude": 126.990275
    },
    {
        "name": "남산골",
        "latitude": 37.5615793,
        "longitude": 126.9965795
    },
    {
        "name": "한밭식품",
        "latitude": 37.5671884,
        "longitude": 126.9978838
    },
    {
        "name": "승보슈퍼",
        "latitude": 37.5701696,
        "longitude": 127.0183959
    },
    {
        "name": "자현당",
        "latitude": 37.5778436,
        "longitude": 126.9858289
    },
    {
        "name": "해피복권방",
        "latitude": 37.599738,
        "longitude": 126.9590915
    },
    {
        "name": "비원복권",
        "latitude": 37.57444,
        "longitude": 126.9912018
    },
    {
        "name": "대박나라",
        "latitude": 37.4747519,
        "longitude": 127.107034
    },
    {
        "name": "만물",
        "latitude": 37.5050635,
        "longitude": 127.0399234
    },
    {
        "name": "파랑새식품",
        "latitude": 37.5198138,
        "longitude": 127.0263227
    },
    {
        "name": "광림마트",
        "latitude": 37.5186405,
        "longitude": 127.0275051
    },
    {
        "name": "진흥슈퍼",
        "latitude": 37.5198352,
        "longitude": 127.0309691
    },
    {
        "name": "현대슈퍼",
        "latitude": 37.4892391,
        "longitude": 127.0679694
    },
    {
        "name": "형제식품",
        "latitude": 37.5142533,
        "longitude": 127.0345628
    },
    {
        "name": "경남마트",
        "latitude": 37.5041462,
        "longitude": 126.8561914
    },
    {
        "name": "천하명당",
        "latitude": 37.4899944,
        "longitude": 126.8403404
    },
    {
        "name": "과자종합상사",
        "latitude": 37.5014788,
        "longitude": 126.85087
    },
    {
        "name": "현진식품",
        "latitude": 37.5007704,
        "longitude": 126.8638719
    },
    {
        "name": "24시미니슈퍼",
        "latitude": 37.4906815,
        "longitude": 126.8936197
    },
    {
        "name": "제일복권",
        "latitude": 37.5898561,
        "longitude": 127.0573619
    },
    {
        "name": "J수퍼",
        "latitude": 37.5810869,
        "longitude": 127.0460875
    },
    {
        "name": "복권천국",
        "latitude": 37.5674271,
        "longitude": 127.0574665
    },
    {
        "name": "한성식품",
        "latitude": 37.5635122,
        "longitude": 126.9904222
    },
    {
        "name": "무교식품",
        "latitude": 37.5682206,
        "longitude": 126.9816321
    },
    {
        "name": "럭키복권방",
        "latitude": 37.655011,
        "longitude": 127.068007
    },
    {
        "name": "평강슈퍼",
        "latitude": 37.6543036,
        "longitude": 127.0576243
    },
    {
        "name": "굿데이",
        "latitude": 37.6175151,
        "longitude": 127.0743905
    },
    {
        "name": "우리슈퍼",
        "latitude": 37.5592988,
        "longitude": 127.0334047
    },
    {
        "name": "행당상회",
        "latitude": 37.565662,
        "longitude": 127.0367149
    },
    {
        "name": "대일슈퍼",
        "latitude": 37.5691913,
        "longitude": 127.0371464
    },
    {
        "name": "무지개슈퍼",
        "latitude": 37.5139755,
        "longitude": 126.9204443
    },
    {
        "name": "영일식품",
        "latitude": 37.526235,
        "longitude": 126.8978509
    },
    {
        "name": "신세계슈퍼",
        "latitude": 37.4978102,
        "longitude": 126.8983516
    },
    {
        "name": "유진식품",
        "latitude": 37.4980511,
        "longitude": 126.9045271
    },
    {
        "name": "대창청과슈퍼",
        "latitude": 37.5102345,
        "longitude": 126.9103173
    },
    {
        "name": "G마트",
        "latitude": 37.4916582,
        "longitude": 126.9021983
    },
    {
        "name": "우선식품",
        "latitude": 37.5125008,
        "longitude": 126.9166887
    },
    {
        "name": "행복",
        "latitude": 37.4827551,
        "longitude": 127.040597
    },
    {
        "name": "평화슈퍼",
        "latitude": 37.6163163,
        "longitude": 126.9190392
    },
    {
        "name": "갈현토큰",
        "latitude": 37.6237829,
        "longitude": 126.9196271
    },
    {
        "name": "월드24시",
        "latitude": 37.619249,
        "longitude": 126.9198115
    },
    {
        "name": "영훈슈퍼마켓",
        "latitude": 37.6378092,
        "longitude": 127.0376438
    },
    {
        "name": "한아름유통",
        "latitude": 37.6508386,
        "longitude": 127.0255004
    },
    {
        "name": "국민슈퍼",
        "latitude": 37.6570481,
        "longitude": 127.0401219
    },
    {
        "name": "돼지슈퍼",
        "latitude": 37.6591158,
        "longitude": 127.0141599
    },
    {
        "name": "오성할인마트",
        "latitude": 37.6507192,
        "longitude": 127.035617
    },
    {
        "name": "럭키슈퍼",
        "latitude": 37.550611,
        "longitude": 126.9773898
    },
    {
        "name": "델타슈퍼",
        "latitude": 37.5296843,
        "longitude": 126.9702253
    },
    {
        "name": "복권세상",
        "latitude": 37.531908,
        "longitude": 126.8337009
    },
    {
        "name": "복권판매소",
        "latitude": 37.5187137,
        "longitude": 126.8532203
    },
    {
        "name": "신정복권",
        "latitude": 37.5211436,
        "longitude": 126.8737457
    },
    {
        "name": "뉴신명",
        "latitude": 37.5333581,
        "longitude": 126.8639758
    },
    {
        "name": "호야식품",
        "latitude": 37.5174717,
        "longitude": 126.8543217
    },
    {
        "name": "농심가슈퍼마트",
        "latitude": 37.5407045,
        "longitude": 126.869035
    },
    {
        "name": "삼육구마트",
        "latitude": 37.5327867,
        "longitude": 126.8655353
    },
    {
        "name": "또와식품",
        "latitude": 37.5501074,
        "longitude": 126.872858
    },
    {
        "name": "현대마트",
        "latitude": 37.5473516,
        "longitude": 126.8769814
    },
    {
        "name": "강서스포츠",
        "latitude": 37.5306737,
        "longitude": 126.8503251
    },
    {
        "name": "길로또복권",
        "latitude": 37.5489865,
        "longitude": 126.8632576
    },
    {
        "name": "화곡본마트",
        "latitude": 37.5424875,
        "longitude": 126.8441365
    },
    {
        "name": "새로나슈퍼",
        "latitude": 37.528749,
        "longitude": 126.8477249
    },
    {
        "name": "진영슈퍼",
        "latitude": 37.5370345,
        "longitude": 126.8632544
    },
    {
        "name": "강서슈퍼",
        "latitude": 37.5529787,
        "longitude": 126.863509
    },
    {
        "name": "금강식품",
        "latitude": 37.5443703,
        "longitude": 126.8373956
    },
    {
        "name": "바이더웨이",
        "latitude": 37.5954926,
        "longitude": 127.058101
    },
    {
        "name": "하나로슈퍼",
        "latitude": 37.5827498,
        "longitude": 127.038865
    },
    {
        "name": "엔마트",
        "latitude": 37.5754311,
        "longitude": 127.0713102
    },
    {
        "name": "그린슈퍼",
        "latitude": 37.5780534,
        "longitude": 127.0387162
    },
    {
        "name": "일등복권방",
        "latitude": 37.5778732,
        "longitude": 127.0588674
    },
    {
        "name": "경성식품",
        "latitude": 37.5904274,
        "longitude": 127.0599821
    },
    {
        "name": "신영슈퍼",
        "latitude": 37.4893292,
        "longitude": 127.1008468
    },
    {
        "name": "삼성마트",
        "latitude": 37.5132097,
        "longitude": 127.0430251
    },
    {
        "name": "그린수퍼",
        "latitude": 37.5998297,
        "longitude": 127.082466
    },
    {
        "name": "신안할인마트",
        "latitude": 37.6141322,
        "longitude": 127.0794961
    },
    {
        "name": "묵동식품",
        "latitude": 37.6124742,
        "longitude": 127.0770797
    },
    {
        "name": "서울복권방",
        "latitude": 37.6027235,
        "longitude": 127.0789937
    },
    {
        "name": "대박드림복권",
        "latitude": 37.593979,
        "longitude": 127.074805
    },
    {
        "name": "부안식품",
        "latitude": 37.5881796,
        "longitude": 127.0958996
    },
    {
        "name": "우정상회",
        "latitude": 37.5957119,
        "longitude": 127.0933666
    },
    {
        "name": "현대슈퍼",
        "latitude": 37.5947975,
        "longitude": 127.0953148
    },
    {
        "name": "대구상회",
        "latitude": 37.5429897,
        "longitude": 126.9437697
    },
    {
        "name": "새한양슈퍼",
        "latitude": 37.5719911,
        "longitude": 126.9012653
    },
    {
        "name": "명신사",
        "latitude": 37.5572982,
        "longitude": 126.9087136
    },
    {
        "name": "정원쇼핑",
        "latitude": 37.5995754,
        "longitude": 126.9484227
    },
    {
        "name": "홍제삼거리마트",
        "latitude": 37.5859161,
        "longitude": 126.9469568
    },
    {
        "name": "민영슈퍼",
        "latitude": 37.5817546,
        "longitude": 126.9130368
    },
    {
        "name": "강원슈퍼",
        "latitude": 37.581639,
        "longitude": 126.9355787
    },
    {
        "name": "제일슈퍼",
        "latitude": 37.5803829,
        "longitude": 126.9113059
    },
    {
        "name": "굿타임",
        "latitude": 37.5791494,
        "longitude": 126.9235892
    },
    {
        "name": "코사마트",
        "latitude": 37.4997327,
        "longitude": 126.9220764
    },
    {
        "name": "개미식품",
        "latitude": 37.5132094,
        "longitude": 126.9380558
    },
    {
        "name": "삼원미니슈퍼",
        "latitude": 37.50012,
        "longitude": 126.9308466
    },
    {
        "name": "상도편의점",
        "latitude": 37.5027023,
        "longitude": 126.9477266
    },
    {
        "name": "신영상회",
        "latitude": 37.5103934,
        "longitude": 126.9399028
    },
    {
        "name": "한냉매점",
        "latitude": 37.5148693,
        "longitude": 126.9368431
    },
    {
        "name": "인동상회",
        "latitude": 37.6619876,
        "longitude": 127.0731379
    },
    {
        "name": "동아슈퍼",
        "latitude": 37.661172,
        "longitude": 127.0610225
    },
    {
        "name": "우성슈퍼",
        "latitude": 37.5507044,
        "longitude": 127.1397792
    },
    {
        "name": "삼익마트",
        "latitude": 37.5466396,
        "longitude": 127.1461712
    },
    {
        "name": "롯데마트",
        "latitude": 37.5486364,
        "longitude": 127.1730085
    },
    {
        "name": "동원마트",
        "latitude": 37.5293543,
        "longitude": 127.1351131
    },
    {
        "name": "그린슈퍼",
        "latitude": 37.5401027,
        "longitude": 127.1441998
    },
    {
        "name": "시흥식품",
        "latitude": 37.454916,
        "longitude": 126.8988564
    },
    {
        "name": "대성미니슈퍼",
        "latitude": 37.4808506,
        "longitude": 126.9076235
    },
    {
        "name": "럭키슈퍼",
        "latitude": 37.4469194,
        "longitude": 126.9031021
    },
    {
        "name": "혜성슈퍼",
        "latitude": 37.4694162,
        "longitude": 126.9354776
    },
    {
        "name": "유창슈퍼",
        "latitude": 37.4684444,
        "longitude": 126.8933034
    },
    {
        "name": "대화식품",
        "latitude": 37.4714235,
        "longitude": 126.896917
    },
    {
        "name": "여명슈퍼마켓",
        "latitude": 37.614336,
        "longitude": 127.0415104
    },
    {
        "name": "행운마트",
        "latitude": 37.605385,
        "longitude": 127.0317844
    },
    {
        "name": "행운부동산(IGA)",
        "latitude": 37.6167677,
        "longitude": 127.0023559
    },
    {
        "name": "데이앤나잇",
        "latitude": 37.6019197,
        "longitude": 127.0335179
    },
    {
        "name": "일공일사(1014)",
        "latitude": 37.5907043,
        "longitude": 127.0036363
    },
    {
        "name": "한양슈퍼복권",
        "latitude": 37.5823578,
        "longitude": 127.0204939
    },
    {
        "name": "보원상회",
        "latitude": 37.5804606,
        "longitude": 127.0222869
    },
    {
        "name": "크로바",
        "latitude": 37.5704056,
        "longitude": 127.0140021
    },
    {
        "name": "보성상회",
        "latitude": 37.5373294,
        "longitude": 127.0811995
    },
    {
        "name": "현대식품",
        "latitude": 37.5379417,
        "longitude": 127.0884916
    },
    {
        "name": "성우미니마트",
        "latitude": 37.5039767,
        "longitude": 127.1137483
    },
    {
        "name": "럭키슈퍼",
        "latitude": 37.5053686,
        "longitude": 127.1098601
    },
    {
        "name": "제일유통",
        "latitude": 37.495506,
        "longitude": 127.1186805
    },
    {
        "name": "명진슈퍼",
        "latitude": 37.4835485,
        "longitude": 127.1296426
    },
    {
        "name": "해피데이마트",
        "latitude": 37.4890591,
        "longitude": 127.1247051
    },
    {
        "name": "우일",
        "latitude": 37.4999584,
        "longitude": 127.1439956
    },
    {
        "name": "혜성슈퍼",
        "latitude": 37.4934615,
        "longitude": 127.126068
    },
    {
        "name": "복권파티",
        "latitude": 37.4928173,
        "longitude": 127.1461745
    },
    {
        "name": "동원식품",
        "latitude": 37.4971975,
        "longitude": 127.1287934
    },
    {
        "name": "피터팬",
        "latitude": 37.6017999,
        "longitude": 126.9290016
    },
    {
        "name": "쎄븐타임",
        "latitude": 37.5407589,
        "longitude": 126.9585028
    },
    {
        "name": "아이비즈마트",
        "latitude": 37.5523123,
        "longitude": 126.9637114
    },
    {
        "name": "해태24시",
        "latitude": 37.5299112,
        "longitude": 126.8339368
    },
    {
        "name": "로또행운마트",
        "latitude": 37.5377467,
        "longitude": 126.8274885
    },
    {
        "name": "우성빨래방",
        "latitude": 37.5734613,
        "longitude": 127.0715291
    },
    {
        "name": "CU경기대사거리점",
        "latitude": 37.5643009,
        "longitude": 126.9638375
    },
    {
        "name": "스파",
        "latitude": 37.6616424,
        "longitude": 127.0580017
    },
    {
        "name": "오렌지스토아",
        "latitude": 37.5630362,
        "longitude": 127.0795482
    },
    {
        "name": "MS마트",
        "latitude": 37.5445382,
        "longitude": 127.0901734
    },
    {
        "name": "가로매점",
        "latitude": 37.6137225,
        "longitude": 127.0305267
    },
    {
        "name": "토큰판매점",
        "latitude": 37.6131312,
        "longitude": 127.029462
    },
    {
        "name": "토큰박스",
        "latitude": 37.6375526,
        "longitude": 127.0255515
    },
    {
        "name": "1등복권방",
        "latitude": 37.6258455,
        "longitude": 127.0185034
    },
    {
        "name": "센타포인트명동앞복지가판점",
        "latitude": 37.564678,
        "longitude": 126.982883
    },
    {
        "name": "종합가판제141호",
        "latitude": 37.5658796,
        "longitude": 127.0219296
    },
    {
        "name": "가로판매점117호",
        "latitude": 37.5676266,
        "longitude": 127.0085048
    },
    {
        "name": "종합가로판매점113호패션TV앞",
        "latitude": 37.5657367,
        "longitude": 127.0070531
    },
    {
        "name": "상호없음",
        "latitude": 37.5536991,
        "longitude": 127.0098789
    },
    {
        "name": "가판점",
        "latitude": 37.5668817,
        "longitude": 126.9995692
    },
    {
        "name": "종로3가1호선역2번출구가로판매점82호",
        "latitude": 37.5707001,
        "longitude": 126.9919207
    },
    {
        "name": "가로판매대",
        "latitude": 37.5681902,
        "longitude": 126.964701
    },
    {
        "name": "가야복권방",
        "latitude": 37.5744586,
        "longitude": 126.9589731
    },
    {
        "name": "동대문1번출구앞가로가판점(65호)",
        "latitude": 37.5720149,
        "longitude": 127.0111748
    },
    {
        "name": "상호없음",
        "latitude": 37.5704842,
        "longitude": 126.9762033
    },
    {
        "name": "SK텔레콤종로지점앞가판대",
        "latitude": 37.5693954,
        "longitude": 126.9832355
    },
    {
        "name": "신사우리가판",
        "latitude": 37.5171485,
        "longitude": 127.0197123
    },
    {
        "name": "버스표판매소",
        "latitude": 37.5252805,
        "longitude": 127.0244003
    },
    {
        "name": "선릉가판점",
        "latitude": 37.5058735,
        "longitude": 127.0480302
    },
    {
        "name": "버스표판매소",
        "latitude": 37.5233451,
        "longitude": 127.0279801
    },
    {
        "name": "가로판매대(구)-3",
        "latitude": 37.5301797,
        "longitude": 127.0290409
    },
    {
        "name": "행복편의점",
        "latitude": 37.4916078,
        "longitude": 126.8922703
    },
    {
        "name": "버스토큰판매소",
        "latitude": 37.4844586,
        "longitude": 126.902256
    },
    {
        "name": "교통카드판매대",
        "latitude": 37.5100374,
        "longitude": 126.8883336
    },
    {
        "name": "가판점",
        "latitude": 37.4889803,
        "longitude": 126.823562
    },
    {
        "name": "종합가판점",
        "latitude": 37.495472,
        "longitude": 126.887536
    },
    {
        "name": "서울구가-17가판",
        "latitude": 37.4903284,
        "longitude": 126.8844061
    },
    {
        "name": "버스토큰판매소",
        "latitude": 37.4976589,
        "longitude": 126.8561743
    },
    {
        "name": "명당복권",
        "latitude": 37.5779916,
        "longitude": 127.0357713
    },
    {
        "name": "종합가판점",
        "latitude": 37.5796968,
        "longitude": 127.0449714
    },
    {
        "name": "상호없음",
        "latitude": 37.5641466,
        "longitude": 126.977257
    },
    {
        "name": "가로판매점",
        "latitude": 37.5630616,
        "longitude": 126.9732836
    },
    {
        "name": "가판100호",
        "latitude": 37.5644299,
        "longitude": 126.9910154
    },
    {
        "name": "남대문회현역가판15호",
        "latitude": 37.5582888,
        "longitude": 126.9775829
    },
    {
        "name": "신가로판매점",
        "latitude": 37.5647017,
        "longitude": 126.9766451
    },
    {
        "name": "가로판매대제152호(신)",
        "latitude": 37.5673056,
        "longitude": 126.9830339
    },
    {
        "name": "하나은행별관앞가판43호",
        "latitude": 37.566412,
        "longitude": 126.9840415
    },
    {
        "name": "가로가판대제57호(구)",
        "latitude": 37.5629202,
        "longitude": 126.9770808
    },
    {
        "name": "종합가로가판점",
        "latitude": 37.5643587,
        "longitude": 127.0063237
    },
    {
        "name": "중구가판12호",
        "latitude": 37.5555057,
        "longitude": 126.9737678
    },
    {
        "name": "가로판매대제18호",
        "latitude": 37.5594054,
        "longitude": 126.9817843
    },
    {
        "name": "중구-가로가판대-37",
        "latitude": 37.5608352,
        "longitude": 126.9780735
    },
    {
        "name": "가로판매대제13호",
        "latitude": 37.5573093,
        "longitude": 126.9770507
    },
    {
        "name": "가판14호",
        "latitude": 37.5580967,
        "longitude": 126.9763531
    },
    {
        "name": "신문가판대",
        "latitude": 37.5577488,
        "longitude": 126.9726749
    },
    {
        "name": "신간판",
        "latitude": 37.5681015,
        "longitude": 126.9794947
    },
    {
        "name": "가판점",
        "latitude": 37.5612886,
        "longitude": 126.9853496
    },
    {
        "name": "가로대가판점",
        "latitude": 37.6114224,
        "longitude": 126.9286013
    },
    {
        "name": "황금대박점",
        "latitude": 37.6359888,
        "longitude": 127.0710297
    },
    {
        "name": "가판점",
        "latitude": 37.639148,
        "longitude": 127.0666156
    },
    {
        "name": "신문판매대",
        "latitude": 37.6185444,
        "longitude": 127.0777902
    },
    {
        "name": "가판대",
        "latitude": 37.6862598,
        "longitude": 127.0480152
    },
    {
        "name": "운수대통가판점",
        "latitude": 37.5623974,
        "longitude": 127.0332569
    },
    {
        "name": "KB행당동지점옆가판",
        "latitude": 37.5578006,
        "longitude": 127.03427
    },
    {
        "name": "가로판매1-4-28",
        "latitude": 37.5705433,
        "longitude": 127.0380731
    },
    {
        "name": "만복당",
        "latitude": 37.5548181,
        "longitude": 127.02036
    },
    {
        "name": "토마토",
        "latitude": 37.5607293,
        "longitude": 127.0394714
    },
    {
        "name": "우리은행금호동지점앞가판",
        "latitude": 37.5481827,
        "longitude": 127.0210193
    },
    {
        "name": "로또킹",
        "latitude": 37.516742,
        "longitude": 126.9067499
    },
    {
        "name": "가판점(신문)",
        "latitude": 37.5344783,
        "longitude": 126.9010078
    },
    {
        "name": "당산로또명당점",
        "latitude": 37.5346563,
        "longitude": 126.900882
    },
    {
        "name": "교통카드판매대",
        "latitude": 37.5237795,
        "longitude": 126.9268892
    },
    {
        "name": "버스충전소",
        "latitude": 37.487741,
        "longitude": 126.98262
    },
    {
        "name": "가판점",
        "latitude": 37.4850618,
        "longitude": 127.0150234
    },
    {
        "name": "버스충전소",
        "latitude": 37.5060987,
        "longitude": 127.0034174
    },
    {
        "name": "가로판매점",
        "latitude": 37.5065445,
        "longitude": 127.0048933
    },
    {
        "name": "오케이상사",
        "latitude": 37.5039351,
        "longitude": 127.002413
    },
    {
        "name": "버스카드충전소",
        "latitude": 37.5070249,
        "longitude": 127.0064782
    },
    {
        "name": "경영상회",
        "latitude": 37.4932705,
        "longitude": 127.0293874
    },
    {
        "name": "드림로또",
        "latitude": 37.50568,
        "longitude": 127.0058468
    },
    {
        "name": "복권판매소",
        "latitude": 37.4918747,
        "longitude": 127.0137428
    },
    {
        "name": "행운복권마트",
        "latitude": 37.4872041,
        "longitude": 126.9928685
    },
    {
        "name": "승지GALLANT",
        "latitude": 37.50568,
        "longitude": 127.0058468
    },
    {
        "name": "우리샵",
        "latitude": 37.4980499,
        "longitude": 127.0264971
    },
    {
        "name": "교통카드",
        "latitude": 37.5081106,
        "longitude": 127.0222943
    },
    {
        "name": "종합가판점",
        "latitude": 37.5942306,
        "longitude": 126.9178721
    },
    {
        "name": "종합가판점",
        "latitude": 37.6119547,
        "longitude": 126.9281847
    },
    {
        "name": "가판",
        "latitude": 37.6123464,
        "longitude": 126.9286789
    },
    {
        "name": "가판점",
        "latitude": 37.6729455,
        "longitude": 127.0438771
    },
    {
        "name": "남영동로또",
        "latitude": 37.5430197,
        "longitude": 126.9722258
    },
    {
        "name": "행운가판점",
        "latitude": 37.527503,
        "longitude": 126.9665133
    },
    {
        "name": "가로판매점",
        "latitude": 37.5298406,
        "longitude": 126.9689037
    },
    {
        "name": "가로판매점",
        "latitude": 37.5361845,
        "longitude": 126.9624979
    },
    {
        "name": "신문가판점",
        "latitude": 37.5417529,
        "longitude": 126.9716188
    },
    {
        "name": "이촌가판점",
        "latitude": 37.5204952,
        "longitude": 126.9729876
    },
    {
        "name": "가로판매점",
        "latitude": 37.5350216,
        "longitude": 126.9614889
    },
    {
        "name": "복권세상",
        "latitude": 37.519702,
        "longitude": 126.8436738
    },
    {
        "name": "까치복권",
        "latitude": 37.5399573,
        "longitude": 126.833356
    },
    {
        "name": "토큰박스",
        "latitude": 37.5953841,
        "longitude": 127.0592494
    },
    {
        "name": "로또판매점",
        "latitude": 37.5806153,
        "longitude": 127.0440026
    },
    {
        "name": "버스카드충전소",
        "latitude": 37.5101582,
        "longitude": 127.0660681
    },
    {
        "name": "교통카드충전소",
        "latitude": 37.4971888,
        "longitude": 127.0521782
    },
    {
        "name": "서교동가판점",
        "latitude": 37.5541137,
        "longitude": 126.9194693
    },
    {
        "name": "가로매점",
        "latitude": 37.541357,
        "longitude": 126.9480097
    },
    {
        "name": "로또복권판매소",
        "latitude": 37.5399727,
        "longitude": 126.9470994
    },
    {
        "name": "아현역3번출구앞가판점",
        "latitude": 37.5570443,
        "longitude": 126.9579612
    },
    {
        "name": "가로판매점",
        "latitude": 37.5586821,
        "longitude": 126.9277299
    },
    {
        "name": "우미6호가판점",
        "latitude": 37.5627447,
        "longitude": 126.9641207
    },
    {
        "name": "가로판매점",
        "latitude": 37.5695019,
        "longitude": 126.9151317
    },
    {
        "name": "가판점",
        "latitude": 37.5569454,
        "longitude": 126.9432628
    },
    {
        "name": "대박종합복권가로판매점",
        "latitude": 37.5560882,
        "longitude": 126.934944
    },
    {
        "name": "가로판매점",
        "latitude": 37.5555703,
        "longitude": 126.9374787
    },
    {
        "name": "가로판매점18호",
        "latitude": 37.558073,
        "longitude": 126.9431952
    },
    {
        "name": "토로또가판점",
        "latitude": 37.5136744,
        "longitude": 126.944582
    },
    {
        "name": "토큰박스",
        "latitude": 37.5078976,
        "longitude": 126.9614485
    },
    {
        "name": "Q마트",
        "latitude": 37.5105288,
        "longitude": 126.9403673
    },
    {
        "name": "가판점",
        "latitude": 37.5047392,
        "longitude": 126.9457522
    },
    {
        "name": "가판점",
        "latitude": 37.5366086,
        "longitude": 127.1312324
    },
    {
        "name": "토큰판매소",
        "latitude": 37.5512462,
        "longitude": 127.1437839
    },
    {
        "name": "가판점",
        "latitude": 37.5283114,
        "longitude": 127.1367148
    },
    {
        "name": "행운마트",
        "latitude": 37.5428664,
        "longitude": 127.135097
    },
    {
        "name": "대박가판장",
        "latitude": 37.5509248,
        "longitude": 127.1437513
    },
    {
        "name": "가로판매점",
        "latitude": 37.5349374,
        "longitude": 127.1385467
    },
    {
        "name": "고덕로또복권",
        "latitude": 37.5582662,
        "longitude": 127.1701144
    },
    {
        "name": "돼지복권",
        "latitude": 37.5477077,
        "longitude": 127.1269954
    },
    {
        "name": "가로판매대",
        "latitude": 37.5392913,
        "longitude": 127.1238673
    },
    {
        "name": "베네시티앞가판",
        "latitude": 37.5405554,
        "longitude": 127.1249758
    },
    {
        "name": "버스카드충전소",
        "latitude": 37.4814223,
        "longitude": 126.9484496
    },
    {
        "name": "가로판매점",
        "latitude": 37.4759484,
        "longitude": 126.9811803
    },
    {
        "name": "버스카드판매대",
        "latitude": 37.471968,
        "longitude": 126.9333057
    },
    {
        "name": "사당",
        "latitude": 37.4757112,
        "longitude": 126.9812959
    },
    {
        "name": "가로가판대",
        "latitude": 37.4838971,
        "longitude": 126.9028357
    },
    {
        "name": "가로판매점",
        "latitude": 37.4763558,
        "longitude": 126.8990868
    },
    {
        "name": "예술인마을버스판매소",
        "latitude": 37.4763242,
        "longitude": 126.9772094
    },
    {
        "name": "가로판매점",
        "latitude": 37.4531527,
        "longitude": 126.900719
    },
    {
        "name": "88수퍼",
        "latitude": 37.4771868,
        "longitude": 126.8920672
    },
    {
        "name": "교통카드충전소",
        "latitude": 37.4691913,
        "longitude": 126.8984851
    },
    {
        "name": "신림마트",
        "latitude": 37.4836754,
        "longitude": 126.9270853
    },
    {
        "name": "신문다이길음시장앞",
        "latitude": 37.6031657,
        "longitude": 127.0224641
    },
    {
        "name": "74호종합가판",
        "latitude": 37.568437,
        "longitude": 126.989898
    },
    {
        "name": "가로매점",
        "latitude": 37.5481675,
        "longitude": 127.0717524
    },
    {
        "name": "가판",
        "latitude": 37.5585912,
        "longitude": 127.0875602
    },
    {
        "name": "백악관앞가판",
        "latitude": 37.5532471,
        "longitude": 127.0895583
    },
    {
        "name": "군자로또점",
        "latitude": 37.5561806,
        "longitude": 127.0785138
    },
    {
        "name": "아차산역가로판매점",
        "latitude": 37.5516651,
        "longitude": 127.0901892
    },
    {
        "name": "자양사거리가로매점",
        "latitude": 37.5362295,
        "longitude": 127.0832168
    },
    {
        "name": "토큰판매소",
        "latitude": 37.536696,
        "longitude": 127.1223775
    },
    {
        "name": "잠실매점",
        "latitude": 37.5144273,
        "longitude": 127.1006114
    },
    {
        "name": "치즈마트",
        "latitude": 37.4961026,
        "longitude": 127.1110027
    },
    {
        "name": "잠실나루역2번출구",
        "latitude": 37.5225555,
        "longitude": 127.1047656
    },
    {
        "name": "복권명당",
        "latitude": 37.6306992,
        "longitude": 127.0179926
    },
    {
        "name": "슈퍼전자",
        "latitude": 37.6193358,
        "longitude": 127.0207598
    },
    {
        "name": "태양비디오",
        "latitude": 37.554458,
        "longitude": 127.0092175
    },
    {
        "name": "샌드빈(SANDBEAN)",
        "latitude": 37.5613419,
        "longitude": 127.0055986
    },
    {
        "name": "꿈이현실로",
        "latitude": 37.5685691,
        "longitude": 126.9977648
    },
    {
        "name": "우리마트",
        "latitude": 37.5632046,
        "longitude": 126.9982013
    },
    {
        "name": "샛별복권방",
        "latitude": 37.5544254,
        "longitude": 127.0119364
    },
    {
        "name": "스태프",
        "latitude": 37.5767427,
        "longitude": 126.9854183
    },
    {
        "name": "대박드림",
        "latitude": 37.5766236,
        "longitude": 127.0218435
    },
    {
        "name": "해피데이",
        "latitude": 37.5052977,
        "longitude": 126.8773596
    },
    {
        "name": "GS25궁동상지점",
        "latitude": 37.4941586,
        "longitude": 126.8330801
    },
    {
        "name": "애니콜플라자",
        "latitude": 37.4925917,
        "longitude": 126.8906346
    },
    {
        "name": "행운복권방",
        "latitude": 37.4865567,
        "longitude": 126.8550315
    },
    {
        "name": "투데이",
        "latitude": 37.5741308,
        "longitude": 127.0310496
    },
    {
        "name": "돈우리",
        "latitude": 37.569584,
        "longitude": 127.0640022
    },
    {
        "name": "보성정보통신",
        "latitude": 37.5619261,
        "longitude": 127.0665276
    },
    {
        "name": "필동반점",
        "latitude": 37.5600098,
        "longitude": 126.9965415
    },
    {
        "name": "문구뱅크",
        "latitude": 37.6070151,
        "longitude": 126.9219692
    },
    {
        "name": "지원물산",
        "latitude": 37.619829,
        "longitude": 127.0781384
    },
    {
        "name": "미래복권",
        "latitude": 37.625191,
        "longitude": 127.0725786
    },
    {
        "name": "기린통신",
        "latitude": 37.6583677,
        "longitude": 127.0754138
    },
    {
        "name": "비디오카페(성수점)",
        "latitude": 37.537763,
        "longitude": 127.0527792
    },
    {
        "name": "한양복권",
        "latitude": 37.5628305,
        "longitude": 127.0539393
    },
    {
        "name": "명당복권",
        "latitude": 37.5196268,
        "longitude": 126.9076358
    },
    {
        "name": "몽곡사",
        "latitude": 37.5231174,
        "longitude": 126.9106197
    },
    {
        "name": "신나라",
        "latitude": 37.5190822,
        "longitude": 126.8894738
    },
    {
        "name": "에이원텔레콤",
        "latitude": 37.4925977,
        "longitude": 126.9902869
    },
    {
        "name": "학창&배팅샵",
        "latitude": 37.4876749,
        "longitude": 126.9945497
    },
    {
        "name": "우주문화사",
        "latitude": 37.4979663,
        "longitude": 126.9862312
    },
    {
        "name": "알파문구반포점",
        "latitude": 37.4983722,
        "longitude": 126.9982077
    },
    {
        "name": "뮤직마트",
        "latitude": 37.4831516,
        "longitude": 127.0360599
    },
    {
        "name": "드림스튜디오",
        "latitude": 37.612697,
        "longitude": 126.9156424
    },
    {
        "name": "패기통신",
        "latitude": 37.6527733,
        "longitude": 127.0513599
    },
    {
        "name": "헬로마트",
        "latitude": 37.6803727,
        "longitude": 127.0459884
    },
    {
        "name": "복권랜드",
        "latitude": 37.6673328,
        "longitude": 127.0422751
    },
    {
        "name": "대박나라",
        "latitude": 37.5392249,
        "longitude": 126.9890202
    },
    {
        "name": "커피다",
        "latitude": 37.5530625,
        "longitude": 126.9762003
    },
    {
        "name": "9스토아",
        "latitude": 37.5331601,
        "longitude": 126.9942335
    },
    {
        "name": "바로정보",
        "latitude": 37.549197,
        "longitude": 126.8676463
    },
    {
        "name": "세종장식",
        "latitude": 37.5253888,
        "longitude": 126.8600819
    },
    {
        "name": "신영정보통신",
        "latitude": 37.5355063,
        "longitude": 126.8632004
    },
    {
        "name": "그랑프리안경",
        "latitude": 37.5478512,
        "longitude": 126.8353978
    },
    {
        "name": "이가복권방",
        "latitude": 37.5754844,
        "longitude": 127.0469038
    },
    {
        "name": "현대비디오",
        "latitude": 37.5718623,
        "longitude": 127.0686843
    },
    {
        "name": "참텔레콤",
        "latitude": 37.5726731,
        "longitude": 127.0576426
    },
    {
        "name": "대박복권",
        "latitude": 37.5748316,
        "longitude": 127.0595904
    },
    {
        "name": "알파문구",
        "latitude": 37.5069358,
        "longitude": 127.0625979
    },
    {
        "name": "윈마트",
        "latitude": 37.5035343,
        "longitude": 127.0977074
    },
    {
        "name": "그린마트",
        "latitude": 37.506908,
        "longitude": 127.0874982
    },
    {
        "name": "노다지로또",
        "latitude": 37.5894841,
        "longitude": 127.091784
    },
    {
        "name": "트윙클용마점",
        "latitude": 37.5949291,
        "longitude": 127.100249
    },
    {
        "name": "열린문구",
        "latitude": 37.6007017,
        "longitude": 127.1002604
    },
    {
        "name": "리더스",
        "latitude": 37.6064552,
        "longitude": 127.0947162
    },
    {
        "name": "태원정보통신",
        "latitude": 37.595434,
        "longitude": 127.0896775
    },
    {
        "name": "행운나라",
        "latitude": 37.5938637,
        "longitude": 127.0925833
    },
    {
        "name": "갈렙분식한식",
        "latitude": 37.5982253,
        "longitude": 127.095291
    },
    {
        "name": "우진음악사",
        "latitude": 37.5905125,
        "longitude": 127.0933447
    },
    {
        "name": "왕자사진관",
        "latitude": 37.6009,
        "longitude": 127.1086677
    },
    {
        "name": "예스로또",
        "latitude": 37.576017,
        "longitude": 127.0827809
    },
    {
        "name": "장보고복권방",
        "latitude": 37.578392,
        "longitude": 127.0862416
    },
    {
        "name": "더블행운점",
        "latitude": 37.5862507,
        "longitude": 127.0786648
    },
    {
        "name": "대박찬스",
        "latitude": 37.5894044,
        "longitude": 127.089787
    },
    {
        "name": "해와달",
        "latitude": 37.5472385,
        "longitude": 126.934103
    },
    {
        "name": "장원사",
        "latitude": 37.5445182,
        "longitude": 126.9355647
    },
    {
        "name": "인더라인25",
        "latitude": 37.5625158,
        "longitude": 126.9271266
    },
    {
        "name": "팬시겔러리",
        "latitude": 37.5677455,
        "longitude": 126.9644804
    },
    {
        "name": "현대서점",
        "latitude": 37.5129359,
        "longitude": 126.9306714
    },
    {
        "name": "학림서점",
        "latitude": 37.5124509,
        "longitude": 126.9513734
    },
    {
        "name": "삼성열쇠공사",
        "latitude": 37.5115094,
        "longitude": 126.9445147
    },
    {
        "name": "대진",
        "latitude": 37.6497003,
        "longitude": 127.0613754
    },
    {
        "name": "복사문구",
        "latitude": 37.5440504,
        "longitude": 127.1420702
    },
    {
        "name": "뮤직프라자",
        "latitude": 37.4788506,
        "longitude": 126.9323444
    },
    {
        "name": "행운복권방",
        "latitude": 37.4704855,
        "longitude": 126.9201215
    },
    {
        "name": "헬스프라자",
        "latitude": 37.4815315,
        "longitude": 126.9532377
    },
    {
        "name": "미래통신",
        "latitude": 37.6162192,
        "longitude": 127.0489194
    },
    {
        "name": "영광정보통신",
        "latitude": 37.6027085,
        "longitude": 127.0425125
    },
    {
        "name": "소문난복권명당",
        "latitude": 37.6069148,
        "longitude": 127.0608617
    },
    {
        "name": "천하명당복권방",
        "latitude": 37.6033789,
        "longitude": 127.012937
    },
    {
        "name": "대명씨앤씨",
        "latitude": 37.5849291,
        "longitude": 127.0178638
    },
    {
        "name": "평안당",
        "latitude": 37.5712238,
        "longitude": 127.0022126
    },
    {
        "name": "문구박사",
        "latitude": 37.5444847,
        "longitude": 127.0695922
    },
    {
        "name": "글사랑(책대여점)",
        "latitude": 37.5557567,
        "longitude": 127.081345
    },
    {
        "name": "뉴골드나라",
        "latitude": 37.5451375,
        "longitude": 127.0874623
    },
    {
        "name": "대박복권방",
        "latitude": 37.546395,
        "longitude": 127.134267
    },
    {
        "name": "복권방",
        "latitude": 37.5913716,
        "longitude": 127.0165971
    },
    {
        "name": "늘푸른복권방",
        "latitude": 37.5650877,
        "longitude": 127.0019223
    },
    {
        "name": "럭키마켓",
        "latitude": 37.5331362,
        "longitude": 127.1442638
    },
    {
        "name": "교통카드충전소",
        "latitude": 37.5239971,
        "longitude": 127.1343733
    },
    {
        "name": "유니온복권",
        "latitude": 37.5764675,
        "longitude": 127.0679494
    },
    {
        "name": "가판대20호",
        "latitude": 37.5004131,
        "longitude": 127.1110937
    },
    {
        "name": "후레쉬마트",
        "latitude": 37.5459466,
        "longitude": 127.1722262
    },
    {
        "name": "현경하이퍼마켓",
        "latitude": 37.6437349,
        "longitude": 127.0147517
    },
    {
        "name": "가로판매소",
        "latitude": 37.5078567,
        "longitude": 126.8918864
    },
    {
        "name": "가로판매점",
        "latitude": 37.4527732,
        "longitude": 126.9016655
    },
    {
        "name": "그랜드마트앞가판점",
        "latitude": 37.5549941,
        "longitude": 126.935995
    },
    {
        "name": "신가로판매점",
        "latitude": 37.5587176,
        "longitude": 126.9744467
    },
    {
        "name": "명동역5번출구가판",
        "latitude": 37.5610621,
        "longitude": 126.9845444
    },
    {
        "name": "노다지복권방",
        "latitude": 37.5729054,
        "longitude": 127.0145281
    },
    {
        "name": "형제상회",
        "latitude": 37.5724946,
        "longitude": 127.030723
    },
    {
        "name": "복권마을(사당점)",
        "latitude": 37.4844478,
        "longitude": 126.972335
    },
    {
        "name": "천하명당복권방",
        "latitude": 37.4798115,
        "longitude": 126.98085
    },
    {
        "name": "오성마트",
        "latitude": 37.5996075,
        "longitude": 127.1037838
    },
    {
        "name": "고대잉크복권방",
        "latitude": 37.5938034,
        "longitude": 127.0586698
    },
    {
        "name": "명당마트",
        "latitude": 37.5736049,
        "longitude": 126.8140584
    },
    {
        "name": "크로바쎄븐",
        "latitude": 37.4853545,
        "longitude": 127.1192266
    },
    {
        "name": "로또복권대치점",
        "latitude": 37.4926645,
        "longitude": 127.0756013
    },
    {
        "name": "로또복권방",
        "latitude": 37.5088851,
        "longitude": 127.0270957
    },
    {
        "name": "신성복권",
        "latitude": 37.519184,
        "longitude": 127.0508086
    },
    {
        "name": "신일",
        "latitude": 37.5520041,
        "longitude": 126.8527074
    },
    {
        "name": "명당",
        "latitude": 37.5341192,
        "longitude": 126.8470697
    },
    {
        "name": "공원수퍼",
        "latitude": 37.5365626,
        "longitude": 126.8350357
    },
    {
        "name": "복권",
        "latitude": 37.4744628,
        "longitude": 126.9638567
    },
    {
        "name": "로또복권",
        "latitude": 37.481842,
        "longitude": 126.9417291
    },
    {
        "name": "행복만들기",
        "latitude": 37.4872747,
        "longitude": 126.9143824
    },
    {
        "name": "대박로또",
        "latitude": 37.4761224,
        "longitude": 126.9157865
    },
    {
        "name": "은혜기획사로또",
        "latitude": 37.5579199,
        "longitude": 127.0893763
    },
    {
        "name": "광나루복권방",
        "latitude": 37.546157,
        "longitude": 127.1049093
    },
    {
        "name": "청송상회",
        "latitude": 37.5415127,
        "longitude": 127.0889532
    },
    {
        "name": "동서울로또",
        "latitude": 37.534538,
        "longitude": 127.0942004
    },
    {
        "name": "Today",
        "latitude": 37.5357263,
        "longitude": 127.0957093
    },
    {
        "name": "세븐몽키스커피",
        "latitude": 37.5574206,
        "longitude": 127.076418
    },
    {
        "name": "성동약국",
        "latitude": 37.5306969,
        "longitude": 127.0747079
    },
    {
        "name": "로또복권",
        "latitude": 37.5628375,
        "longitude": 127.0802596
    },
    {
        "name": "복권소매",
        "latitude": 37.4737429,
        "longitude": 126.8904699
    },
    {
        "name": "새시대복권방",
        "latitude": 37.4509719,
        "longitude": 126.9103593
    },
    {
        "name": "로또복권판매",
        "latitude": 37.4563317,
        "longitude": 126.9021526
    },
    {
        "name": "로또",
        "latitude": 37.5129327,
        "longitude": 126.9266893
    },
    {
        "name": "이대역4번출구앞가판점",
        "latitude": 37.5570599,
        "longitude": 126.9466833
    },
    {
        "name": "가로판매점",
        "latitude": 37.4870229,
        "longitude": 126.9828023
    },
    {
        "name": "청수마트",
        "latitude": 37.4689485,
        "longitude": 127.0413757
    },
    {
        "name": "로또복권판매소",
        "latitude": 37.5638764,
        "longitude": 127.0328859
    },
    {
        "name": "옥수역복권방",
        "latitude": 37.5415798,
        "longitude": 127.0166255
    },
    {
        "name": "버스카드충전소",
        "latitude": 37.5138178,
        "longitude": 126.9266878
    },
    {
        "name": "로또방",
        "latitude": 37.5176345,
        "longitude": 126.9065192
    },
    {
        "name": "스탐티쉬",
        "latitude": 37.5927086,
        "longitude": 126.9656894
    },
    {
        "name": "축복마트",
        "latitude": 37.5854098,
        "longitude": 127.0800641
    },
    {
        "name": "용꿈복권",
        "latitude": 37.596076,
        "longitude": 127.0987367
    },
    {
        "name": "로또코리아",
        "latitude": 37.5920479,
        "longitude": 127.0859731
    },
    {
        "name": "가로판매점",
        "latitude": 37.5937271,
        "longitude": 127.0762385
    },
    {
        "name": "LOTTO복권",
        "latitude": 37.4969664,
        "longitude": 127.0463898
    },
    {
        "name": "새날",
        "latitude": 37.4971584,
        "longitude": 127.0304025
    },
    {
        "name": "로또",
        "latitude": 37.5045825,
        "longitude": 127.0507411
    },
    {
        "name": "대박",
        "latitude": 37.492747,
        "longitude": 127.0843781
    },
    {
        "name": "보람로또",
        "latitude": 37.5240568,
        "longitude": 127.0489202
    },
    {
        "name": "로또판매",
        "latitude": 37.5056143,
        "longitude": 127.0583533
    },
    {
        "name": "찬스복권방",
        "latitude": 37.6472313,
        "longitude": 127.0169794
    },
    {
        "name": "그린마트복권방",
        "latitude": 37.5432399,
        "longitude": 126.8446405
    },
    {
        "name": "복권명가",
        "latitude": 37.4857288,
        "longitude": 126.9575456
    },
    {
        "name": "행복올레점",
        "latitude": 37.4843067,
        "longitude": 126.9281786
    },
    {
        "name": "복권365",
        "latitude": 37.5372015,
        "longitude": 127.0657808
    },
    {
        "name": "대박복권방",
        "latitude": 37.4917204,
        "longitude": 126.8548388
    },
    {
        "name": "고경식품",
        "latitude": 37.4968272,
        "longitude": 126.8625037
    },
    {
        "name": "해태식품",
        "latitude": 37.4514459,
        "longitude": 126.9026011
    },
    {
        "name": "주하",
        "latitude": 37.6196192,
        "longitude": 127.0753338
    },
    {
        "name": "내복권방",
        "latitude": 37.6212545,
        "longitude": 127.0828763
    },
    {
        "name": "로또판매점",
        "latitude": 37.6708593,
        "longitude": 127.0800083
    },
    {
        "name": "로또수락산점",
        "latitude": 37.6791235,
        "longitude": 127.0549618
    },
    {
        "name": "성보복권",
        "latitude": 37.6237243,
        "longitude": 127.0600505
    },
    {
        "name": "로또판매",
        "latitude": 37.6570405,
        "longitude": 127.0741661
    },
    {
        "name": "행운마트",
        "latitude": 37.6444248,
        "longitude": 127.0833287
    },
    {
        "name": "금정복권방",
        "latitude": 37.657412,
        "longitude": 127.038047
    },
    {
        "name": "로또복권",
        "latitude": 37.6480442,
        "longitude": 127.0332018
    },
    {
        "name": "삼호복권",
        "latitude": 37.646771,
        "longitude": 127.0332673
    },
    {
        "name": "명당복권방",
        "latitude": 37.5024074,
        "longitude": 126.9486297
    },
    {
        "name": "썬마트",
        "latitude": 37.4968949,
        "longitude": 126.9244433
    },
    {
        "name": "뉴서울슈퍼",
        "latitude": 37.5619071,
        "longitude": 126.9682127
    },
    {
        "name": "인더라인북가좌점",
        "latitude": 37.5771362,
        "longitude": 126.9093007
    },
    {
        "name": "행운식품",
        "latitude": 37.5889307,
        "longitude": 127.0080347
    },
    {
        "name": "우리마트",
        "latitude": 37.5943205,
        "longitude": 127.0171781
    },
    {
        "name": "행복복권방",
        "latitude": 37.5221975,
        "longitude": 126.8757713
    },
    {
        "name": "로또복권",
        "latitude": 37.5183463,
        "longitude": 126.9059623
    },
    {
        "name": "로또판매점",
        "latitude": 37.4916295,
        "longitude": 126.9081633
    },
    {
        "name": "대박로또",
        "latitude": 37.519863,
        "longitude": 126.9106578
    },
    {
        "name": "꽃이활짝피는복권방",
        "latitude": 37.516874,
        "longitude": 126.8948822
    },
    {
        "name": "구두로또",
        "latitude": 37.5380789,
        "longitude": 126.9608768
    },
    {
        "name": "일점오로또",
        "latitude": 37.5342109,
        "longitude": 126.9735244
    },
    {
        "name": "복권명당ㆍ토탈클린",
        "latitude": 37.6239733,
        "longitude": 126.9171626
    },
    {
        "name": "대박천하복권방",
        "latitude": 37.6122343,
        "longitude": 126.9176825
    },
    {
        "name": "대박복권",
        "latitude": 37.6028941,
        "longitude": 126.9184418
    },
    {
        "name": "행운복권방",
        "latitude": 37.6146683,
        "longitude": 126.9168273
    },
    {
        "name": "갈현베르빌부동산공인중개사사무소",
        "latitude": 37.612241,
        "longitude": 126.9168775
    },
    {
        "name": "오거리마트",
        "latitude": 37.5901254,
        "longitude": 126.917931
    },
    {
        "name": "윤성",
        "latitude": 37.5699412,
        "longitude": 127.0051975
    },
    {
        "name": "5가로또레드탑",
        "latitude": 37.5707598,
        "longitude": 127.0023703
    },
    {
        "name": "다산행운방",
        "latitude": 37.5625004,
        "longitude": 127.0165249
    },
    {
        "name": "복권방",
        "latitude": 37.5579546,
        "longitude": 126.9674883
    },
    {
        "name": "강일코사할인마트",
        "latitude": 37.5605657,
        "longitude": 127.1788624
    },
    {
        "name": "왕대박",
        "latitude": 37.6123181,
        "longitude": 127.0345651
    },
    {
        "name": "로또복권판매",
        "latitude": 37.6362361,
        "longitude": 127.0310235
    },
    {
        "name": "오로라복권방",
        "latitude": 37.5323004,
        "longitude": 127.079128
    },
    {
        "name": "대박",
        "latitude": 37.5674196,
        "longitude": 127.0525642
    },
    {
        "name": "로또마트",
        "latitude": 37.5626038,
        "longitude": 127.0635092
    },
    {
        "name": "준로또",
        "latitude": 37.5670652,
        "longitude": 127.064943
    },
    {
        "name": "미니상회",
        "latitude": 37.5795011,
        "longitude": 127.0421254
    },
    {
        "name": "대박로또",
        "latitude": 37.5632876,
        "longitude": 127.0521268
    },
    {
        "name": "대원슈퍼",
        "latitude": 37.6042271,
        "longitude": 127.0376898
    },
    {
        "name": "어머화장품",
        "latitude": 37.5020808,
        "longitude": 127.1040898
    },
    {
        "name": "가로판매점",
        "latitude": 37.5112467,
        "longitude": 127.085399
    },
    {
        "name": "일등복권방",
        "latitude": 37.5257809,
        "longitude": 126.8632162
    },
    {
        "name": "만복복권",
        "latitude": 37.5499959,
        "longitude": 126.9761742
    },
    {
        "name": "배임",
        "latitude": 37.5262576,
        "longitude": 127.0006634
    },
    {
        "name": "월드마켓",
        "latitude": 37.6105129,
        "longitude": 126.9292509
    },
    {
        "name": "만물사",
        "latitude": 37.5601134,
        "longitude": 126.9762455
    },
    {
        "name": "몽유호가(夢有好家)",
        "latitude": 37.530837,
        "longitude": 127.1210267
    },
    {
        "name": "금금산(金金産)복방",
        "latitude": 37.6358679,
        "longitude": 127.0292105
    },
    {
        "name": "우이담배가게",
        "latitude": 37.6366738,
        "longitude": 127.0170793
    },
    {
        "name": "현대",
        "latitude": 37.6462096,
        "longitude": 127.0376686
    },
    {
        "name": "정원복권방",
        "latitude": 37.6473897,
        "longitude": 127.0343912
    },
    {
        "name": "행운복권방",
        "latitude": 37.6530918,
        "longitude": 127.0463398
    },
    {
        "name": "행운로또방",
        "latitude": 37.6419643,
        "longitude": 127.0350564
    },
    {
        "name": "세븐로또",
        "latitude": 37.5762849,
        "longitude": 127.0378117
    },
    {
        "name": "세명복권",
        "latitude": 37.5579871,
        "longitude": 126.9166116
    },
    {
        "name": "로또지물포",
        "latitude": 37.5604473,
        "longitude": 126.9040981
    },
    {
        "name": "대박복권방",
        "latitude": 37.5914501,
        "longitude": 127.0152475
    },
    {
        "name": "대박복권방",
        "latitude": 37.6118416,
        "longitude": 127.0637439
    },
    {
        "name": "대만상사",
        "latitude": 37.6087601,
        "longitude": 127.0083503
    },
    {
        "name": "윈윈",
        "latitude": 37.5137203,
        "longitude": 127.1101464
    },
    {
        "name": "성지로또",
        "latitude": 37.5084223,
        "longitude": 127.1279517
    },
    {
        "name": "드림공인중개사사무소",
        "latitude": 37.5460472,
        "longitude": 126.873891
    },
    {
        "name": "신나라복권나라",
        "latitude": 37.6044483,
        "longitude": 127.061872
    },
    {
        "name": "로또가맹점",
        "latitude": 37.5745005,
        "longitude": 127.0475168
    },
    {
        "name": "로또복권방",
        "latitude": 37.5895014,
        "longitude": 127.0103631
    },
    {
        "name": "태성철물",
        "latitude": 37.5130559,
        "longitude": 127.1107414
    },
    {
        "name": "대박복권방",
        "latitude": 37.5261588,
        "longitude": 126.8632964
    },
    {
        "name": "삼성대박복권방",
        "latitude": 37.5116563,
        "longitude": 127.0519212
    },
    {
        "name": "포이로또방",
        "latitude": 37.4777582,
        "longitude": 127.0485561
    },
    {
        "name": "로또플러스",
        "latitude": 37.6256127,
        "longitude": 127.0273601
    },
    {
        "name": "로또복권판매",
        "latitude": 37.620277,
        "longitude": 127.027456
    },
    {
        "name": "공항로또",
        "latitude": 37.5615441,
        "longitude": 126.8115093
    },
    {
        "name": "하나로종합유통",
        "latitude": 37.5586687,
        "longitude": 126.8321734
    },
    {
        "name": "행운의복권방",
        "latitude": 37.4854087,
        "longitude": 126.9467065
    },
    {
        "name": "로또편의점",
        "latitude": 37.4972091,
        "longitude": 126.8886929
    },
    {
        "name": "로또",
        "latitude": 37.4729258,
        "longitude": 126.8889236
    },
    {
        "name": "샛별로또",
        "latitude": 37.5981418,
        "longitude": 127.0679956
    },
    {
        "name": "명당복권방",
        "latitude": 37.5796235,
        "longitude": 127.0703219
    },
    {
        "name": "천하명당로또복권",
        "latitude": 37.588526,
        "longitude": 126.9456599
    },
    {
        "name": "정평복권",
        "latitude": 37.5396649,
        "longitude": 126.8669623
    },
    {
        "name": "북앤파트너",
        "latitude": 37.5689552,
        "longitude": 127.0640722
    },
    {
        "name": "대박복권방",
        "latitude": 37.5478039,
        "longitude": 127.1443689
    },
    {
        "name": "대림슈퍼복권방",
        "latitude": 37.5349826,
        "longitude": 126.8378968
    },
    {
        "name": "소비자할인마트",
        "latitude": 37.4819874,
        "longitude": 126.9051507
    },
    {
        "name": "로또명당일등점",
        "latitude": 37.4741936,
        "longitude": 126.9162584
    },
    {
        "name": "행운식품",
        "latitude": 37.4818916,
        "longitude": 126.9272067
    },
    {
        "name": "행운로또복권판매점",
        "latitude": 37.5022949,
        "longitude": 126.8479957
    },
    {
        "name": "이마트24길음현대",
        "latitude": 37.6073893,
        "longitude": 127.0282004
    },
    {
        "name": "나눔로또수입과자",
        "latitude": 37.5899724,
        "longitude": 127.0150358
    },
    {
        "name": "보물섬복권판매점",
        "latitude": 37.4841908,
        "longitude": 127.1213785
    },
    {
        "name": "인앤아웃",
        "latitude": 37.4973126,
        "longitude": 127.1493917
    },
    {
        "name": "와이비상사",
        "latitude": 37.5335321,
        "longitude": 127.1166047
    },
    {
        "name": "금사랑",
        "latitude": 37.5232112,
        "longitude": 126.8426176
    },
    {
        "name": "또또행복",
        "latitude": 37.5212248,
        "longitude": 126.8392918
    },
    {
        "name": "무지개복권방",
        "latitude": 37.5951921,
        "longitude": 126.9138326
    },
    {
        "name": "혜안마트",
        "latitude": 37.6010402,
        "longitude": 126.9189017
    },
    {
        "name": "로또방",
        "latitude": 37.587969,
        "longitude": 127.0851157
    },
    {
        "name": "GS25(동묘역점)",
        "latitude": 37.5727249,
        "longitude": 127.0161059
    },
    {
        "name": "복다방",
        "latitude": 37.5445697,
        "longitude": 127.0650293
    },
    {
        "name": "행운복권방",
        "latitude": 37.5907892,
        "longitude": 127.0778655
    },
    {
        "name": "구청앞로또명당",
        "latitude": 37.639638,
        "longitude": 127.0263348
    },
    {
        "name": "행복로또방",
        "latitude": 37.6829914,
        "longitude": 127.0456238
    },
    {
        "name": "행운사",
        "latitude": 37.6156773,
        "longitude": 127.0646949
    },
    {
        "name": "드림로또",
        "latitude": 37.6354035,
        "longitude": 126.9195793
    },
    {
        "name": "행운복권방",
        "latitude": 37.4799665,
        "longitude": 126.8826362
    },
    {
        "name": "가산내차례복권",
        "latitude": 37.4804028,
        "longitude": 126.8868682
    },
    {
        "name": "100세로또",
        "latitude": 37.5332486,
        "longitude": 126.903739
    },
    {
        "name": "수현미니수퍼",
        "latitude": 37.5380951,
        "longitude": 127.1395235
    },
    {
        "name": "대박슈퍼",
        "latitude": 37.5523137,
        "longitude": 127.1285986
    },
    {
        "name": "로또복권",
        "latitude": 37.5864399,
        "longitude": 127.0943935
    },
    {
        "name": "로또클럽",
        "latitude": 37.6593231,
        "longitude": 127.0682865
    },
    {
        "name": "공릉또또점",
        "latitude": 37.6245446,
        "longitude": 127.0795769
    },
    {
        "name": "천하명당로또",
        "latitude": 37.6609697,
        "longitude": 127.0698456
    },
    {
        "name": "리치하우스",
        "latitude": 37.6180544,
        "longitude": 126.9330298
    },
    {
        "name": "제이로또",
        "latitude": 37.61613,
        "longitude": 126.9247469
    },
    {
        "name": "로또판매점",
        "latitude": 37.5128156,
        "longitude": 126.8303336
    },
    {
        "name": "오피스복권",
        "latitude": 37.5416207,
        "longitude": 126.8409876
    },
    {
        "name": "일등복권방",
        "latitude": 37.5321878,
        "longitude": 126.8635449
    },
    {
        "name": "아비스",
        "latitude": 37.5579346,
        "longitude": 126.8182223
    },
    {
        "name": "씨유구로미래지오점",
        "latitude": 37.485175,
        "longitude": 126.899522
    },
    {
        "name": "로또대박디자인스토리",
        "latitude": 37.4543471,
        "longitude": 126.9028157
    },
    {
        "name": "복권나라",
        "latitude": 37.4824559,
        "longitude": 126.9396191
    },
    {
        "name": "정곡식품",
        "latitude": 37.4941711,
        "longitude": 127.0100149
    },
    {
        "name": "사랑복권",
        "latitude": 37.4858282,
        "longitude": 127.1168763
    },
    {
        "name": "복권판매점(일원점)",
        "latitude": 37.4908987,
        "longitude": 127.0873491
    },
    {
        "name": "선릉로또명당",
        "latitude": 37.5043425,
        "longitude": 127.0446563
    },
    {
        "name": "코코마켓",
        "latitude": 37.5409854,
        "longitude": 126.8369901
    },
    {
        "name": "대박복권방",
        "latitude": 37.4759338,
        "longitude": 126.9376006
    },
    {
        "name": "고고GOGO로또",
        "latitude": 37.5356449,
        "longitude": 127.0817757
    },
    {
        "name": "로또명당",
        "latitude": 37.6434986,
        "longitude": 127.0657465
    },
    {
        "name": "포시즌",
        "latitude": 37.6587514,
        "longitude": 127.0348063
    },
    {
        "name": "수정슈퍼",
        "latitude": 37.5801307,
        "longitude": 127.0681179
    },
    {
        "name": "제기우리로또",
        "latitude": 37.5825575,
        "longitude": 127.0367454
    },
    {
        "name": "금광복권방",
        "latitude": 37.5689642,
        "longitude": 126.9111469
    },
    {
        "name": "세븐복권방",
        "latitude": 37.4856546,
        "longitude": 127.0216349
    },
    {
        "name": "대박복권",
        "latitude": 37.6151391,
        "longitude": 127.0482471
    },
    {
        "name": "행운커피",
        "latitude": 37.4823178,
        "longitude": 127.12211
    },
    {
        "name": "행운복권",
        "latitude": 37.5129129,
        "longitude": 126.9175001
    },
    {
        "name": "오케이(ok)로또",
        "latitude": 37.5366457,
        "longitude": 126.968758
    },
    {
        "name": "행운복권마트",
        "latitude": 37.5753256,
        "longitude": 127.0158767
    },
    {
        "name": "일확천금복권방",
        "latitude": 37.5076373,
        "longitude": 127.0240808
    },
    {
        "name": "황룡복권",
        "latitude": 37.5170222,
        "longitude": 127.0208674
    },
    {
        "name": "복권정복",
        "latitude": 37.5542973,
        "longitude": 127.1357894
    },
    {
        "name": "로또명당",
        "latitude": 37.5430951,
        "longitude": 127.1475535
    },
    {
        "name": "소울로또",
        "latitude": 37.5349156,
        "longitude": 127.1395703
    },
    {
        "name": "소리로또복권방",
        "latitude": 37.6320615,
        "longitude": 127.0242161
    },
    {
        "name": "사슴",
        "latitude": 37.6333458,
        "longitude": 127.0174295
    },
    {
        "name": "행운복권",
        "latitude": 37.6199686,
        "longitude": 127.0162517
    },
    {
        "name": "복권",
        "latitude": 37.6403932,
        "longitude": 127.0286736
    },
    {
        "name": "수유월드통신",
        "latitude": 37.6328318,
        "longitude": 127.0137699
    },
    {
        "name": "로또방",
        "latitude": 37.6446015,
        "longitude": 127.013842
    },
    {
        "name": "로아cafe",
        "latitude": 37.6458549,
        "longitude": 127.0198044
    },
    {
        "name": "로또카페",
        "latitude": 37.567926,
        "longitude": 126.8414841
    },
    {
        "name": "플러스복권",
        "latitude": 37.5592839,
        "longitude": 126.8457301
    },
    {
        "name": "일등복권",
        "latitude": 37.5677413,
        "longitude": 126.8147951
    },
    {
        "name": "금손로또",
        "latitude": 37.5594492,
        "longitude": 126.8124324
    },
    {
        "name": "와우복권방",
        "latitude": 37.5498433,
        "longitude": 126.8482341
    },
    {
        "name": "지에스(GS)25화곡호호",
        "latitude": 37.5433574,
        "longitude": 126.842655
    },
    {
        "name": "장수복권",
        "latitude": 37.4741527,
        "longitude": 126.9169955
    },
    {
        "name": "모든홍삼",
        "latitude": 37.4858874,
        "longitude": 126.9383973
    },
    {
        "name": "꿈꾸는섬",
        "latitude": 37.4869333,
        "longitude": 126.9382283
    },
    {
        "name": "행운뚝딱",
        "latitude": 37.4869378,
        "longitude": 126.9178252
    },
    {
        "name": "정우로또",
        "latitude": 37.4812692,
        "longitude": 126.9517225
    },
    {
        "name": "다복동행복권",
        "latitude": 37.485327,
        "longitude": 126.9378815
    },
    {
        "name": "만조복권",
        "latitude": 37.5065294,
        "longitude": 126.8591053
    },
    {
        "name": "대박로또",
        "latitude": 37.5029941,
        "longitude": 126.8450228
    },
    {
        "name": "행운복권",
        "latitude": 37.4935651,
        "longitude": 126.8921899
    },
    {
        "name": "은성로또",
        "latitude": 37.4801524,
        "longitude": 126.8234112
    },
    {
        "name": "고척대박복권&카페",
        "latitude": 37.5019056,
        "longitude": 126.8647932
    },
    {
        "name": "연타",
        "latitude": 37.4863569,
        "longitude": 126.8912735
    },
    {
        "name": "동행복권",
        "latitude": 37.4625605,
        "longitude": 126.9038873
    },
    {
        "name": "골드스파",
        "latitude": 37.4721346,
        "longitude": 126.8986068
    },
    {
        "name": "다올",
        "latitude": 37.6629189,
        "longitude": 127.0691949
    },
    {
        "name": "행운커피",
        "latitude": 37.6223835,
        "longitude": 127.0756698
    },
    {
        "name": "오케이(O.K)로또",
        "latitude": 37.6564802,
        "longitude": 127.0157295
    },
    {
        "name": "라라랜드",
        "latitude": 37.6726554,
        "longitude": 127.0447746
    },
    {
        "name": "도래미슈퍼",
        "latitude": 37.6671612,
        "longitude": 127.0353621
    },
    {
        "name": "도깨비로또명당",
        "latitude": 37.6648694,
        "longitude": 127.0357601
    },
    {
        "name": "행운드림복권방",
        "latitude": 37.5685008,
        "longitude": 127.0519021
    },
    {
        "name": "다담",
        "latitude": 37.5675768,
        "longitude": 127.0717362
    },
    {
        "name": "대성복권",
        "latitude": 37.5706456,
        "longitude": 127.0305878
    },
    {
        "name": "동행복권",
        "latitude": 37.5782202,
        "longitude": 127.0571467
    },
    {
        "name": "천하1등로또방",
        "latitude": 37.5684076,
        "longitude": 127.0654621
    },
    {
        "name": "동행복권",
        "latitude": 37.4992248,
        "longitude": 126.9399638
    },
    {
        "name": "찐대박복권",
        "latitude": 37.4898865,
        "longitude": 126.9092042
    },
    {
        "name": "세계로생활가전",
        "latitude": 37.4984461,
        "longitude": 126.9283238
    },
    {
        "name": "로또복권방",
        "latitude": 37.5093889,
        "longitude": 126.9399695
    },
    {
        "name": "대박복권",
        "latitude": 37.5486302,
        "longitude": 126.9158855
    },
    {
        "name": "럭키라쿤복권상암점",
        "latitude": 37.5768334,
        "longitude": 126.8947454
    },
    {
        "name": "만수르유통",
        "latitude": 37.5536115,
        "longitude": 126.9101724
    },
    {
        "name": "운수좋은날",
        "latitude": 37.5813386,
        "longitude": 126.8885633
    },
    {
        "name": "행복로또",
        "latitude": 37.5499081,
        "longitude": 126.9544556
    },
    {
        "name": "금손복권",
        "latitude": 37.5418785,
        "longitude": 126.95228
    },
    {
        "name": "행복드림",
        "latitude": 37.5466672,
        "longitude": 126.9325704
    },
    {
        "name": "다람쥐로또",
        "latitude": 37.5525062,
        "longitude": 126.9067386
    },
    {
        "name": "연남복권방",
        "latitude": 37.5628677,
        "longitude": 126.9232309
    },
    {
        "name": "보람복권",
        "latitude": 37.5899264,
        "longitude": 126.9417001
    },
    {
        "name": "행운복권방(홍은벽산점)",
        "latitude": 37.5944914,
        "longitude": 126.9461506
    },
    {
        "name": "에바다양품",
        "latitude": 37.5988812,
        "longitude": 126.9490339
    },
    {
        "name": "로또",
        "latitude": 37.5755652,
        "longitude": 126.9131821
    },
    {
        "name": "머니데이",
        "latitude": 37.4811672,
        "longitude": 126.9982719
    },
    {
        "name": "규림",
        "latitude": 37.4816753,
        "longitude": 126.9971279
    },
    {
        "name": "사당역14번출구로또판매점",
        "latitude": 37.4767608,
        "longitude": 126.9833178
    },
    {
        "name": "행운로또복권방",
        "latitude": 37.6075981,
        "longitude": 127.0105435
    },
    {
        "name": "도도복권",
        "latitude": 37.5978493,
        "longitude": 127.0327418
    },
    {
        "name": "세븐11명당",
        "latitude": 37.5000918,
        "longitude": 127.0970307
    },
    {
        "name": "한양",
        "latitude": 37.4959741,
        "longitude": 127.1261227
    },
    {
        "name": "대박로또",
        "latitude": 37.4945429,
        "longitude": 127.1519379
    },
    {
        "name": "희망복권",
        "latitude": 37.5009934,
        "longitude": 127.0914058
    },
    {
        "name": "방이로또",
        "latitude": 37.5101796,
        "longitude": 127.1179904
    },
    {
        "name": "천하명당복권방(신정점)",
        "latitude": 37.5246485,
        "longitude": 126.8542722
    },
    {
        "name": "나눔로또",
        "latitude": 37.5300427,
        "longitude": 126.8358735
    },
    {
        "name": "로또픽",
        "latitude": 37.5212379,
        "longitude": 126.8343957
    },
    {
        "name": "풍년로또",
        "latitude": 37.5258187,
        "longitude": 126.9051301
    },
    {
        "name": "이마트24신길힐스테이트점",
        "latitude": 37.504013,
        "longitude": 126.9117915
    },
    {
        "name": "동행그레이스",
        "latitude": 37.5239998,
        "longitude": 126.8973102
    },
    {
        "name": "갑부복권판매점",
        "latitude": 37.5330619,
        "longitude": 127.0068598
    },
    {
        "name": "로또용산한남점",
        "latitude": 37.5342655,
        "longitude": 127.0090712
    },
    {
        "name": "대박예림이네",
        "latitude": 37.5542105,
        "longitude": 126.9664138
    },
    {
        "name": "시온복권방",
        "latitude": 37.5304792,
        "longitude": 126.9672652
    },
    {
        "name": "예치복권",
        "latitude": 37.5958972,
        "longitude": 126.9088561
    },
    {
        "name": "로또",
        "latitude": 37.5938746,
        "longitude": 126.9189673
    },
    {
        "name": "복주는아재",
        "latitude": 37.6051438,
        "longitude": 126.9219318
    },
    {
        "name": "복권판매점",
        "latitude": 37.6144371,
        "longitude": 126.9094601
    },
    {
        "name": "복드림(올인원아이스)",
        "latitude": 37.5955321,
        "longitude": 126.9100775
    },
    {
        "name": "나인",
        "latitude": 37.5691547,
        "longitude": 126.9843099
    },
    {
        "name": "로또사과",
        "latitude": 37.5721129,
        "longitude": 126.9930463
    },
    {
        "name": "축복의통로",
        "latitude": 37.5613284,
        "longitude": 127.0141677
    },
    {
        "name": "아멘로또",
        "latitude": 37.5973916,
        "longitude": 127.0934422
    },
    {
        "name": "황금돼지복권방",
        "latitude": 37.6103192,
        "longitude": 127.0780898
    },
    {
        "name": "크린에이드",
        "latitude": 37.5937462,
        "longitude": 127.0900077
    },
    {
        "name": "마션",
        "latitude": 37.6056838,
        "longitude": 127.0981036
    },
    {
        "name": "역삼승리복권방",
        "latitude": 37.5005326,
        "longitude": 127.0316854
    },
    {
        "name": "씨유도곡럭키",
        "latitude": 37.490542,
        "longitude": 127.0383708
    },
    {
        "name": "아너힐즈로또복권",
        "latitude": 37.4846559,
        "longitude": 127.0672555
    },
    {
        "name": "새만",
        "latitude": 37.5500828,
        "longitude": 127.1457359
    },
    {
        "name": "쏘쏘로또판매점",
        "latitude": 37.536364,
        "longitude": 127.1287394
    },
    {
        "name": "꼭돼지복권",
        "latitude": 37.5337025,
        "longitude": 127.1450627
    },
    {
        "name": "도로시",
        "latitude": 37.5653807,
        "longitude": 127.174118
    },
    {
        "name": "명당복권방",
        "latitude": 37.5425941,
        "longitude": 127.1452066
    },
    {
        "name": "운좋은날",
        "latitude": 37.530035,
        "longitude": 127.1328237
    },
    {
        "name": "일등",
        "latitude": 37.5394712,
        "longitude": 127.1410053
    },
    {
        "name": "럭키팩토리",
        "latitude": 37.6367355,
        "longitude": 127.0272465
    },
    {
        "name": "1등로또명당",
        "latitude": 37.6252877,
        "longitude": 127.0325204
    },
    {
        "name": "골드",
        "latitude": 37.6337462,
        "longitude": 127.0237132
    },
    {
        "name": "천하명당",
        "latitude": 37.6488211,
        "longitude": 127.0142492
    },
    {
        "name": "함지박복권",
        "latitude": 37.5323582,
        "longitude": 126.8576538
    },
    {
        "name": "대박복권",
        "latitude": 37.5586283,
        "longitude": 126.823855
    },
    {
        "name": "스시현",
        "latitude": 37.5569331,
        "longitude": 126.8534631
    },
    {
        "name": "에슬로우",
        "latitude": 37.5659907,
        "longitude": 126.8441385
    },
    {
        "name": "행복한행운",
        "latitude": 37.5645046,
        "longitude": 126.839701
    },
    {
        "name": "로또명당",
        "latitude": 37.5364922,
        "longitude": 126.8474621
    },
    {
        "name": "행운복권방",
        "latitude": 37.5564719,
        "longitude": 126.8608623
    },
    {
        "name": "차오르다",
        "latitude": 37.5594275,
        "longitude": 126.8393628
    },
    {
        "name": "그린눈(복권)",
        "latitude": 37.485583,
        "longitude": 126.9320574
    },
    {
        "name": "골드",
        "latitude": 37.494292,
        "longitude": 126.9281576
    },
    {
        "name": "아차산행운복권",
        "latitude": 37.5529415,
        "longitude": 127.0932859
    },
    {
        "name": "레인보우",
        "latitude": 37.5453015,
        "longitude": 127.085232
    },
    {
        "name": "소문난복권방",
        "latitude": 37.4816171,
        "longitude": 126.8253612
    },
    {
        "name": "복권방",
        "latitude": 37.5001012,
        "longitude": 126.8822915
    },
    {
        "name": "로또명당",
        "latitude": 37.5011174,
        "longitude": 126.8449081
    },
    {
        "name": "모두의복권",
        "latitude": 37.4944131,
        "longitude": 126.8405927
    },
    {
        "name": "아이스크림앤폰",
        "latitude": 37.4909937,
        "longitude": 126.8415153
    },
    {
        "name": "개봉망월복권",
        "latitude": 37.4862921,
        "longitude": 126.8519258
    },
    {
        "name": "행운",
        "latitude": 37.5040299,
        "longitude": 126.8636204
    },
    {
        "name": "소망복권",
        "latitude": 37.4524899,
        "longitude": 126.9088529
    },
    {
        "name": "지니복권",
        "latitude": 37.4546497,
        "longitude": 126.9013387
    },
    {
        "name": "드림복권",
        "latitude": 37.4579986,
        "longitude": 126.8999046
    },
    {
        "name": "명당복권방",
        "latitude": 37.6244179,
        "longitude": 127.0757584
    },
    {
        "name": "행운복권방",
        "latitude": 37.6218457,
        "longitude": 127.0591484
    },
    {
        "name": "단지정육점",
        "latitude": 37.6413396,
        "longitude": 127.0629086
    },
    {
        "name": "보람복권",
        "latitude": 37.6645288,
        "longitude": 127.0665955
    },
    {
        "name": "태경",
        "latitude": 37.661011,
        "longitude": 127.0710371
    },
    {
        "name": "드림복권",
        "latitude": 37.6672216,
        "longitude": 127.0785464
    },
    {
        "name": "팡팡",
        "latitude": 37.6185747,
        "longitude": 127.0572982
    },
    {
        "name": "가로판매대",
        "latitude": 37.6468022,
        "longitude": 127.0702739
    },
    {
        "name": "돈뭉치복권",
        "latitude": 37.6544567,
        "longitude": 127.0414078
    },
    {
        "name": "돈벼락",
        "latitude": 37.6647254,
        "longitude": 127.0423934
    },
    {
        "name": "시장상회",
        "latitude": 37.5786415,
        "longitude": 127.0291786
    },
    {
        "name": "바다복권방",
        "latitude": 37.586266,
        "longitude": 127.0331169
    },
    {
        "name": "아이빌세탁",
        "latitude": 37.5772191,
        "longitude": 127.0296638
    },
    {
        "name": "삼육오상사",
        "latitude": 37.5863437,
        "longitude": 127.0430084
    },
    {
        "name": "병문리로또",
        "latitude": 37.5832087,
        "longitude": 127.0414395
    },
    {
        "name": "복권점",
        "latitude": 37.5770581,
        "longitude": 127.0581273
    },
    {
        "name": "또와요로또방",
        "latitude": 37.5847055,
        "longitude": 127.0510037
    },
    {
        "name": "이수복권판매점",
        "latitude": 37.4874323,
        "longitude": 126.9802148
    },
    {
        "name": "행운복권",
        "latitude": 37.5577852,
        "longitude": 126.9048153
    },
    {
        "name": "독수리복권방",
        "latitude": 37.5661136,
        "longitude": 126.9300694
    },
    {
        "name": "희준로또",
        "latitude": 37.5877658,
        "longitude": 126.94674
    },
    {
        "name": "또기쁨복권판매점",
        "latitude": 37.5735893,
        "longitude": 126.9199889
    },
    {
        "name": "드림",
        "latitude": 37.5829453,
        "longitude": 126.9122677
    },
    {
        "name": "행운카페",
        "latitude": 37.5919624,
        "longitude": 126.9423098
    },
    {
        "name": "달콤이네아이스크림",
        "latitude": 37.5054822,
        "longitude": 126.994698
    },
    {
        "name": "반포신논현복권",
        "latitude": 37.5063528,
        "longitude": 127.0223918
    },
    {
        "name": "로그인편의점",
        "latitude": 37.5608396,
        "longitude": 127.066568
    },
    {
        "name": "금나와라뚝딱",
        "latitude": 37.60733,
        "longitude": 127.036218
    },
    {
        "name": "타코",
        "latitude": 37.6024001,
        "longitude": 127.0164739
    },
    {
        "name": "행복나눔",
        "latitude": 37.5924169,
        "longitude": 127.0028852
    },
    {
        "name": "행운충전소",
        "latitude": 37.5876285,
        "longitude": 127.017612
    },
    {
        "name": "로또판매점",
        "latitude": 37.5165342,
        "longitude": 126.8408947
    },
    {
        "name": "로또복권판매점",
        "latitude": 37.5169974,
        "longitude": 126.8411207
    },
    {
        "name": "일등당첨",
        "latitude": 37.5219803,
        "longitude": 126.8507674
    },
    {
        "name": "행운명당",
        "latitude": 37.5210901,
        "longitude": 126.8544323
    },
    {
        "name": "예지행복",
        "latitude": 37.5248579,
        "longitude": 126.841327
    },
    {
        "name": "좋은날로또",
        "latitude": 37.5231938,
        "longitude": 126.8322835
    },
    {
        "name": "가로판매점제55호",
        "latitude": 37.5450848,
        "longitude": 126.9708568
    },
    {
        "name": "복권판매점",
        "latitude": 37.5404296,
        "longitude": 126.9685401
    },
    {
        "name": "서울역로또명당",
        "latitude": 37.5540799,
        "longitude": 126.972328
    },
    {
        "name": "로또",
        "latitude": 37.5338202,
        "longitude": 126.9899375
    },
    {
        "name": "우리세탁",
        "latitude": 37.5954736,
        "longitude": 126.9183734
    },
    {
        "name": "이웃집",
        "latitude": 37.5875866,
        "longitude": 126.9184202
    },
    {
        "name": "인생한방",
        "latitude": 37.5864965,
        "longitude": 126.916912
    },
    {
        "name": "럭키스토어",
        "latitude": 37.6084623,
        "longitude": 126.9263856
    },
    {
        "name": "월드복권",
        "latitude": 37.5757868,
        "longitude": 126.9890647
    },
    {
        "name": "인생식물가게",
        "latitude": 37.5741085,
        "longitude": 126.9892221
    },
    {
        "name": "해바라기로또",
        "latitude": 37.5760671,
        "longitude": 127.0228592
    },
    {
        "name": "남도복권",
        "latitude": 37.5732319,
        "longitude": 127.0205514
    },
    {
        "name": "씨유(CU)혜화한아름",
        "latitude": 37.5896691,
        "longitude": 126.9989571
    },
    {
        "name": "BN항공여행사",
        "latitude": 37.6054532,
        "longitude": 126.9661247
    },
    {
        "name": "우리마트",
        "latitude": 37.57169,
        "longitude": 126.996457
    },
    {
        "name": "금산상사",
        "latitude": 37.5671779,
        "longitude": 126.9870535
    },
    {
        "name": "남산명당",
        "latitude": 37.5605142,
        "longitude": 126.9854541
    },
    {
        "name": "쌍둥이네복권방",
        "latitude": 37.5596321,
        "longitude": 126.9680982
    },
    {
        "name": "동행로또",
        "latitude": 37.5766367,
        "longitude": 127.0831273
    },
    {
        "name": "태릉시장복권방",
        "latitude": 37.5981184,
        "longitude": 127.076671
    },
    {
        "name": "천운로또복권방",
        "latitude": 37.6071037,
        "longitude": 127.078119
    },
    {
        "name": "저스트로또",
        "latitude": 37.5802363,
        "longitude": 127.0905059
    },
    {
        "name": "드림드림복권방",
        "latitude": 37.4977415,
        "longitude": 127.0650701
    },
    {
        "name": "투싼",
        "latitude": 37.4992883,
        "longitude": 127.0484325
    },
    {
        "name": "세곡스마일",
        "latitude": 37.4660449,
        "longitude": 127.1013669
    },
    {
        "name": "역삼대박황제복권방",
        "latitude": 37.5067814,
        "longitude": 127.0369582
    },
    {
        "name": "골드리치",
        "latitude": 37.4744598,
        "longitude": 127.103959
    },
    {
        "name": "동행",
        "latitude": 37.5320562,
        "longitude": 127.0284897
    },
    {
        "name": "강남로또판매점",
        "latitude": 37.4913409,
        "longitude": 127.088329
    },
    {
        "name": "로또",
        "latitude": 37.537568,
        "longitude": 127.1411054
    },
    {
        "name": "황금복권방",
        "latitude": 37.5533555,
        "longitude": 127.1439505
    },
    {
        "name": "희망로또",
        "latitude": 37.5506911,
        "longitude": 127.1350729
    },
    {
        "name": "오케바리",
        "latitude": 37.5494839,
        "longitude": 127.1286503
    },
    {
        "name": "서울복권명당",
        "latitude": 37.6215852,
        "longitude": 127.0206045
    },
    {
        "name": "행운복권",
        "latitude": 37.6400241,
        "longitude": 127.0129273
    },
    {
        "name": "천운",
        "latitude": 37.6554338,
        "longitude": 127.0129578
    },
    {
        "name": "카페로또",
        "latitude": 37.6367198,
        "longitude": 127.0131682
    },
    {
        "name": "금용",
        "latitude": 37.6480865,
        "longitude": 127.014102
    },
    {
        "name": "행운복권",
        "latitude": 37.5439087,
        "longitude": 126.8427952
    },
    {
        "name": "동화복권방",
        "latitude": 37.5368621,
        "longitude": 126.8366942
    },
    {
        "name": "장박사로또",
        "latitude": 37.5388804,
        "longitude": 126.8397082
    },
    {
        "name": "로또드림",
        "latitude": 37.5554067,
        "longitude": 126.8546215
    },
    {
        "name": "행운복권",
        "latitude": 37.5688514,
        "longitude": 126.8273386
    },
    {
        "name": "육사오(6/45)복권방",
        "latitude": 37.482033,
        "longitude": 126.9115333
    },
    {
        "name": "라온",
        "latitude": 37.4668383,
        "longitude": 126.9206172
    },
    {
        "name": "금성슈퍼",
        "latitude": 37.4806256,
        "longitude": 126.9113207
    },
    {
        "name": "크린토피아",
        "latitude": 37.4886778,
        "longitude": 126.9303398
    },
    {
        "name": "우리로또방",
        "latitude": 37.4850169,
        "longitude": 126.9276591
    },
    {
        "name": "희망복권방",
        "latitude": 37.5354649,
        "longitude": 127.0673038
    },
    {
        "name": "대박집",
        "latitude": 37.5537624,
        "longitude": 127.0918646
    },
    {
        "name": "승승복권",
        "latitude": 37.5558585,
        "longitude": 127.0759063
    },
    {
        "name": "복권판매점",
        "latitude": 37.4898625,
        "longitude": 126.8559253
    },
    {
        "name": "꽁다방",
        "latitude": 37.4498162,
        "longitude": 126.9083065
    },
    {
        "name": "은지대리점",
        "latitude": 37.450524,
        "longitude": 126.9051154
    },
    {
        "name": "대길복권판매점",
        "latitude": 37.4539209,
        "longitude": 126.9059413
    },
    {
        "name": "켁터스커피일등복권",
        "latitude": 37.65174,
        "longitude": 127.0616737
    },
    {
        "name": "하늘복권",
        "latitude": 37.6662173,
        "longitude": 127.0578614
    },
    {
        "name": "소망",
        "latitude": 37.6599272,
        "longitude": 127.0734393
    },
    {
        "name": "능력복권판매소",
        "latitude": 37.6462737,
        "longitude": 127.0821237
    },
    {
        "name": "믿음사",
        "latitude": 37.6149749,
        "longitude": 127.0650834
    },
    {
        "name": "다옴복",
        "latitude": 37.6684007,
        "longitude": 127.0347259
    },
    {
        "name": "행운복권방",
        "latitude": 37.6460444,
        "longitude": 127.0358494
    },
    {
        "name": "이레슈퍼",
        "latitude": 37.6553758,
        "longitude": 127.0404319
    },
    {
        "name": "인생역전복권방",
        "latitude": 37.6760552,
        "longitude": 127.0437484
    },
    {
        "name": "신가스토어",
        "latitude": 37.5849325,
        "longitude": 127.0523285
    },
    {
        "name": "효정",
        "latitude": 37.5878844,
        "longitude": 127.055912
    },
    {
        "name": "오늘로또복권판매점",
        "latitude": 37.5731409,
        "longitude": 127.0663146
    },
    {
        "name": "복권판매점(장안점)",
        "latitude": 37.5709433,
        "longitude": 127.0705533
    },
    {
        "name": "로또",
        "latitude": 37.5738029,
        "longitude": 127.0325868
    },
    {
        "name": "호야",
        "latitude": 37.5706874,
        "longitude": 127.0673383
    },
    {
        "name": "쌍둥이복권",
        "latitude": 37.4835927,
        "longitude": 126.9712526
    },
    {
        "name": "협성복권",
        "latitude": 37.4864582,
        "longitude": 126.9052365
    },
    {
        "name": "금탑복권",
        "latitude": 37.487253,
        "longitude": 126.9819794
    },
    {
        "name": "주연",
        "latitude": 37.4975292,
        "longitude": 126.9200475
    },
    {
        "name": "호박드림",
        "latitude": 37.5479732,
        "longitude": 126.9213505
    },
    {
        "name": "한아름복권판매점",
        "latitude": 37.5440681,
        "longitude": 126.933967
    },
    {
        "name": "황금복권방",
        "latitude": 37.5846161,
        "longitude": 126.9483363
    },
    {
        "name": "남문상사",
        "latitude": 37.5708062,
        "longitude": 126.9343482
    },
    {
        "name": "성호하우징",
        "latitude": 37.5724574,
        "longitude": 126.9287346
    },
    {
        "name": "로또판매점",
        "latitude": 37.4835324,
        "longitude": 127.0418928
    },
    {
        "name": "영광",
        "latitude": 37.482092,
        "longitude": 126.9840268
    },
    {
        "name": "1등로또",
        "latitude": 37.4804334,
        "longitude": 126.9844258
    },
    {
        "name": "윤성복권",
        "latitude": 37.4907447,
        "longitude": 126.983935
    },
    {
        "name": "현클로바",
        "latitude": 37.4814546,
        "longitude": 126.982258
    },
    {
        "name": "행운복권",
        "latitude": 37.5648194,
        "longitude": 127.0268997
    },